[
  {
    "name": "Château Cos d'Estournel",
    "coordinates": [
      -0.77576,
      45.23078
    ],
    "rank": "二級酒莊 (Deuxième Grand Cru Classé 1855)",
    "description": "以東方宮殿式酒莊建築聞名，風格濃郁、結構強勁，是聖埃斯泰夫最具代表性的名莊之一。",
<<<<<<< HEAD
    "image": "/images/chateaux/LeftBank/Medoc/cos_destournel.jpg"
=======
    "image": "/images/chateaux/cos_destournel.jpg"
>>>>>>> 9847b3d3b7b371cb4094a360f2c32d0dd114bc8b
  },
  {
    "name": "Château Montrose",
    "coordinates": [
      -0.76114,
      45.24667
    ],
    "rank": "二級酒莊 (Deuxième Grand Cru Classé 1855)",
    "description": "以強勁結構和陳年潛力著稱，聖埃斯泰夫最頂尖的二級酒莊之一。",
<<<<<<< HEAD
    "image": "/images/chateaux/LeftBank/Medoc/montrose.jpg"
=======
    "image": "/images/chateaux/montrose.jpg"
>>>>>>> 9847b3d3b7b371cb4094a360f2c32d0dd114bc8b
  },
  {
    "name": "Château Calon-Ségur",
    "coordinates": [
      -0.77769,
      45.26697
    ],
    "rank": "三級酒莊 (Troisième Grand Cru Classé 1855)",
    "description": "以心型酒標著稱，風格優雅細膩，陳年後展現迷人複雜度。",
<<<<<<< HEAD
    "image": "/images/chateaux/LeftBank/Medoc/calon_segur.jpg"
=======
    "image": "/images/chateaux/calon_segur.jpg"
>>>>>>> 9847b3d3b7b371cb4094a360f2c32d0dd114bc8b
  },
  {
    "name": "Château Lafon-Rochet",
    "coordinates": [
      -0.78777,
      45.22941
    ],
    "rank": "四級酒莊 (Quatrième Grand Cru Classé 1855)",
    "description": "以明亮黃色酒莊建築聞名，風格均衡，性價比高。",
<<<<<<< HEAD
    "image": "/images/chateaux/LeftBank/Medoc/lafon_rochet.jpg"
=======
    "image": "/images/chateaux/lafon_rochet.jpg"
>>>>>>> 9847b3d3b7b371cb4094a360f2c32d0dd114bc8b
  },
  {
    "name": "Château Meyney",
    "coordinates": [
      -0.77,
      45.245
    ],
    "rank": "聖埃斯泰夫優質名莊",
    "description": "歷史悠久，風格濃郁，近年品質穩定提升。",
<<<<<<< HEAD
    "image": "/images/chateaux/LeftBank/Medoc/meyney.jpg"
=======
    "image": "/images/chateaux/meyney.jpg"
>>>>>>> 9847b3d3b7b371cb4094a360f2c32d0dd114bc8b
  },
  {
    "name": "Château Phélan Ségur",
    "coordinates": [
      -0.76846,
      45.26161
    ],
    "rank": "聖埃斯泰夫優質名莊",
    "description": "以現代化管理和穩定品質著稱，風格結構感強。",
<<<<<<< HEAD
    "image": "/images/chateaux/LeftBank/Medoc/phelan_segur.jpg"
=======
    "image": "/images/chateaux/phelan_segur.jpg"
>>>>>>> 9847b3d3b7b371cb4094a360f2c32d0dd114bc8b
  },
  {
    "name": "Château Haut-Marbuzet",
    "coordinates": [
      -0.7689,
      45.23816
    ],
    "rank": "聖埃斯泰夫優質名莊",
    "description": "以柔順口感和香氣複雜著稱，風格較為圓潤。",
<<<<<<< HEAD
    "image": "/images/chateaux/LeftBank/Medoc/haut_marbuzet.jpg"
=======
    "image": "/images/chateaux/haut_marbuzet.jpg"
>>>>>>> 9847b3d3b7b371cb4094a360f2c32d0dd114bc8b
  },
  {
    "name": "Château Le Boscq",
    "coordinates": [
      -0.7705,
      45.247
    ],
    "rank": "聖埃斯泰夫優質名莊",
    "description": "位於吉倫特河畔，風格濃郁，單寧結構明顯。",
<<<<<<< HEAD
    "image": "/images/chateaux/LeftBank/Medoc/le_boscq.jpg"
=======
    "image": "/images/chateaux/le_boscq.jpg"
>>>>>>> 9847b3d3b7b371cb4094a360f2c32d0dd114bc8b
  },
  {
    "name": "Château Lilian Ladouys",
    "coordinates": [
      -0.7702,
      45.243
    ],
    "rank": "聖埃斯泰夫優質名莊",
    "description": "近年品質大幅提升，風格新鮮果香與細膩單寧兼具。",
<<<<<<< HEAD
    "image": "/images/chateaux/LeftBank/Medoc/lilian_ladouys.jpg"
=======
    "image": "/images/chateaux/lilian_ladouys.jpg"
>>>>>>> 9847b3d3b7b371cb4094a360f2c32d0dd114bc8b
  }
]